City_ID,City,Lat,Lng,Max Temp,Humidity,Cloudiness,Wind Speed,Country,Date
0,barrow,71.2906,-156.7887,-19.99,77,20,5.14,US,1681355123
1,arraial do cabo,-22.9661,-42.0278,23.99,87,96,7.81,BR,1681355123
2,bluff,-46.6,168.3333,11.56,78,86,9.39,NZ,1681355094
3,punta arenas,-53.15,-70.9167,2.84,75,0,3.09,CL,1681355088
4,saint-philippe,-21.3585,55.7679,24.77,82,15,0.83,RE,1681355124
5,rikitea,-23.1203,-134.9692,25.38,69,78,4.75,PF,1681355124
6,antofagasta,-23.65,-70.4,18.6,77,29,1.84,CL,1681354661
7,salalah,17.0151,54.0924,27.05,78,40,1.03,OM,1681354559
8,hilo,19.7297,-155.09,24.04,94,97,0.89,US,1681354981
9,jamestown,42.097,-79.2353,18.8,52,0,4.12,US,1681354833
10,heiligenhafen,54.3667,10.9833,4.86,92,43,4.09,DE,1681355126
11,polson,47.6936,-114.1632,5.12,52,100,0.96,US,1681355127
12,georgetown,5.4112,100.3354,31.96,70,20,2.57,MY,1681355127
13,ancud,-41.8697,-73.8203,10.42,78,100,2.62,CL,1681355082
14,rudbar,30.15,62.6,27.49,14,0,2.63,AF,1681355128
15,albany,42.6001,-73.9662,17.67,58,1,0.89,US,1681355086
16,busselton,-33.65,115.3333,17.32,87,56,8.21,AU,1681355129
17,nikolskoye,59.7035,30.7861,3.94,85,99,4.16,RU,1681355129
18,mount gambier,-37.8333,140.7667,20.31,63,29,2.68,AU,1681354579
19,castro,-24.7911,-50.0119,15.62,87,9,1.42,BR,1681355083
20,san cristobal,7.7669,-72.225,23.1,97,100,0.88,VE,1681355130
21,dunedin,-45.8742,170.5036,12.67,88,100,2.24,NZ,1681354956
22,beloha,-25.1667,45.05,20.27,93,33,2.31,MG,1681355132
23,vaini,-21.2,-175.2,30.09,70,75,5.14,TO,1681355098
24,mahebourg,-20.4081,57.7,24.03,84,8,1.94,MU,1681355133
25,east london,-33.0153,27.9116,18.14,50,69,2.02,ZA,1681354835
26,pevek,69.7008,170.3133,-17.37,82,99,0.51,RU,1681355134
27,mataura,-46.1927,168.8643,11.38,78,94,3.86,NZ,1681355082
28,filadelfia,39.9523,-75.1638,23.67,46,0,4.12,US,1681355066
29,ushuaia,-54.8,-68.3,5.81,65,100,6.69,AR,1681355080
30,vire,48.9167,-0.8333,6.66,90,88,6.4,FR,1681355135
31,tuatapere,-46.1333,167.6833,14.47,77,81,4.12,NZ,1681355040
32,gobabis,-22.45,18.9667,18.64,28,60,2.17,NA,1681355135
33,zaraza,9.3503,-65.3245,25.52,69,99,4.0,VE,1681355136
34,vestmannaeyjar,63.4427,-20.2734,5.93,66,22,4.36,IS,1681354578
35,avarua,-21.2078,-159.775,27.03,69,20,3.6,CK,1681355136
36,clyde river,70.4692,-68.5914,-14.87,78,100,11.32,CA,1681355137
37,rehoboth,-23.3167,17.0833,17.05,40,0,3.02,NA,1681355137
38,chapais,49.7834,-74.8492,-3.12,97,13,1.18,CA,1681354681
39,kloulklubed,7.0419,134.2556,28.73,76,22,3.73,PW,1681354917
40,kahului,20.8947,-156.47,27.01,64,40,8.75,US,1681354431
41,ilulissat,69.2167,-51.1,-5.99,100,100,0.0,GL,1681354957
42,kondinskoye,59.6481,67.41,-5.61,93,100,6.47,RU,1681355138
43,burgeo,47.6167,-57.6152,3.45,88,100,5.27,CA,1681355139
44,moree,-29.4667,149.85,23.29,35,0,7.51,AU,1681354644
45,butaritari,3.0707,172.7902,27.73,72,72,3.61,KI,1681355139
46,mar del plata,-38.0023,-57.5575,11.72,90,20,2.57,AR,1681354860
47,cabedelo,-6.9811,-34.8339,25.37,84,61,4.54,BR,1681354666
48,yellowknife,62.456,-114.3525,-2.71,74,20,3.09,CA,1681354851
49,dicabisagan,17.0818,122.4157,29.23,68,100,1.82,PH,1681355140
50,kruisfontein,-34.0033,24.7314,12.02,75,18,2.54,ZA,1681355141
51,santa rosa,14.3122,121.1114,27.84,86,100,2.15,PH,1681355141
52,bairiki,1.3292,172.9752,31.0,66,75,2.57,KI,1681355141
53,sarangani,5.4033,125.4636,28.4,73,70,2.83,PH,1681355142
54,barcelos,41.5388,-8.6151,9.91,74,91,1.54,PT,1681355142
55,manaure,11.7751,-72.4445,26.8,67,100,6.32,CO,1681355142
56,atuona,-9.8,-139.0333,27.17,69,100,3.82,PF,1681355143
57,cape town,-33.9258,18.4232,16.16,81,75,2.06,ZA,1681355143
58,changtu,42.7788,124.0955,15.58,34,100,3.58,CN,1681355143
59,kalmunai,7.4167,81.8167,28.9,72,9,0.57,LK,1681355144
60,kaitangata,-46.2817,169.8464,11.49,90,100,5.09,NZ,1681355144
61,lasa,46.6166,10.7002,5.76,98,100,1.7,IT,1681354633
62,tiksi,71.6872,128.8694,-19.18,98,99,2.29,RU,1681354552
63,hamilton,39.1834,-84.5333,18.47,56,0,2.06,US,1681354585
64,asau,46.4333,26.4,5.71,92,95,1.8,RO,1681354566
65,lebu,-37.6167,-73.65,12.46,94,35,1.57,CL,1681354960
66,burgos,42.3394,-3.7079,-1.77,100,54,0.0,ES,1681355146
67,teluknaga,-6.0989,106.6381,32.81,75,20,7.2,ID,1681355146
68,ulcinj,41.9294,19.2244,9.12,85,2,2.71,ME,1681355146
69,fairbanks,64.8378,-147.7164,-5.51,76,100,1.53,US,1681354848
70,vila velha,-20.3297,-40.2925,23.3,91,20,1.03,BR,1681354926
71,thinadhoo,0.5333,72.9333,28.27,71,42,1.51,MV,1681355147
72,severo-kurilsk,50.6789,156.125,0.16,98,100,12.3,RU,1681355093
73,mercedes,-34.6515,-59.4307,13.69,59,100,5.07,AR,1681355148
74,qaanaaq,77.484,-69.3632,-17.73,66,0,1.61,GL,1681355148
75,vuktyl,63.8567,57.3094,-15.74,79,92,4.98,RU,1681355148
76,samdari,25.8167,72.5833,30.25,31,70,2.11,IN,1681355149
77,umm kaddadah,13.6017,26.6876,21.8,19,59,8.37,SD,1681355149
78,saratov,51.5667,46.0333,10.97,8,100,1.34,RU,1681355149
79,camocim,-2.9022,-40.8411,24.22,88,60,3.25,BR,1681355095
80,hobart,-42.8794,147.3294,17.92,66,75,2.57,AU,1681355150
81,bredasdorp,-34.5322,20.0403,13.1,71,99,2.71,ZA,1681355134
82,new norfolk,-42.7826,147.0587,17.73,58,69,1.61,AU,1681355150
83,saskylakh,71.9167,114.0833,-8.5,86,100,6.07,RU,1681354557
84,hermanus,-34.4187,19.2345,12.67,66,73,3.05,ZA,1681355081
85,sechura,-5.5569,-80.8222,27.59,71,94,5.32,PE,1681355151
86,sao sepe,-30.1606,-53.5653,19.81,90,82,2.57,BR,1681355152
87,biu,10.6129,12.1946,23.44,19,0,3.13,NG,1681355152
88,roma,43.2128,-75.4557,19.93,65,0,1.54,US,1681354308
89,fehervarcsurgo,47.2935,18.2646,9.71,72,100,2.53,HU,1681355152
90,alice springs,-23.7,133.8833,27.75,30,100,4.63,AU,1681355154
91,padang,-0.9492,100.3543,29.03,66,91,1.18,ID,1681355154
92,esperance,-33.8667,121.9,23.89,47,3,4.6,AU,1681354575
93,luderitz,-26.6481,15.1594,14.22,66,68,4.86,NA,1681355154
94,glenwood springs,39.5505,-107.3248,15.45,80,75,5.14,US,1681355101
95,kudahuvadhoo,2.6708,72.8944,28.11,75,25,3.1,MV,1681355155
96,ende,-8.8432,121.6623,29.96,72,29,0.54,ID,1681355156
97,axim,4.8699,-2.2405,26.36,88,13,3.26,GH,1681355156
98,kabare,-2.4683,28.8242,15.23,94,100,0.31,CD,1681355156
99,zhigalovo,54.8097,105.1578,-1.26,43,42,2.8,RU,1681355156
100,marzuq,14.4,46.4667,19.56,74,62,2.91,YE,1681355157
101,puerto ayora,-0.7393,-90.3518,27.53,89,31,0.89,EC,1681355157
102,gibsons,49.3997,-123.5027,11.18,71,10,1.19,CA,1681355158
103,kuusamo,65.9667,29.1833,-8.98,92,75,2.57,FI,1681355158
104,cabatuan,10.8794,122.486,31.69,55,12,4.2,PH,1681355158
105,lompoc,34.6391,-120.4579,11.03,78,40,8.23,US,1681354456
106,port elizabeth,-33.918,25.5701,16.84,60,0,2.24,ZA,1681355159
107,hithadhoo,-0.6,73.0833,28.35,69,21,1.9,MV,1681355159
108,upernavik,72.7868,-56.1549,-13.45,91,83,1.55,GL,1681355080
109,makarska,43.2969,17.0178,10.78,73,28,4.51,HR,1681355160
110,dikson,73.5069,80.5464,-20.69,92,20,8.68,RU,1681355160
111,tuban,-6.8976,112.0649,29.0,72,100,1.39,ID,1681355161
112,fortuna,40.5982,-124.1573,8.7,73,7,4.02,US,1681354975
113,khasan,42.4308,130.6434,10.06,42,53,2.48,RU,1681355135
114,tessalit,20.1986,1.0114,27.14,10,99,2.95,ML,1681354625
115,svit,49.0601,20.2069,-1.12,93,75,1.03,SK,1681355162
116,mitzic,0.7821,11.549,19.8,98,47,1.18,GA,1681355163
117,mozarlandia,-14.7447,-50.5706,25.08,75,96,0.98,BR,1681355163
118,saint george,37.1041,-113.5841,23.3,20,0,4.12,US,1681355163
119,port alfred,-33.5906,26.891,17.54,57,54,3.75,ZA,1681355164
120,luganville,-15.5333,167.1667,29.88,69,84,2.61,VU,1681355164
121,tuktoyaktuk,69.4541,-133.0374,-19.0,71,40,5.66,CA,1681354574
122,bambous virieux,-20.3428,57.7575,24.01,85,8,2.06,MU,1681355094
123,praia da vitoria,38.7333,-27.0667,16.14,82,20,3.2,PT,1681355165
124,nhulunbuy,-12.2333,136.7667,25.34,88,75,5.66,AU,1681355156
125,yudong,29.385,106.5194,22.5,71,100,1.59,CN,1681355166
126,kalabo,-14.97,22.6814,18.42,87,87,2.12,ZM,1681355166
127,outjo,-20.1167,16.15,19.15,37,88,2.46,NA,1681355167
128,morgan city,29.6994,-91.2068,17.23,77,0,2.57,US,1681355167
129,west richland,46.3043,-119.3614,9.95,53,0,5.14,US,1681355168
130,khandyga,62.6667,135.6,-0.32,99,72,0.98,RU,1681355168
131,tasiilaq,65.6145,-37.6368,1.09,91,100,1.83,GL,1681354981
132,margate,51.3813,1.3862,6.6,82,100,2.24,GB,1681355169
133,cidreira,-30.1811,-50.2056,23.05,82,58,1.47,BR,1681355080
134,huntsville,34.7304,-86.5861,16.75,61,0,0.0,US,1681355160
135,pirenopolis,-15.8525,-48.9592,21.27,92,12,1.32,BR,1681355169
136,kapaa,22.0752,-159.319,26.99,85,75,7.72,US,1681355170
137,los llanos de aridane,28.6585,-17.9182,16.86,72,20,5.66,ES,1681354602
138,ribeira grande,38.5167,-28.7,16.54,94,92,4.92,PT,1681355170
139,madera,37.1666,-119.8343,15.24,72,4,1.9,US,1681355171
140,aksarka,66.5606,67.7975,-20.6,79,38,2.23,RU,1681354976
141,kushima,31.4583,131.2333,21.2,47,70,3.07,JP,1681355171
142,wanning,18.8003,110.3967,25.49,83,97,3.6,CN,1681354588
143,portland,45.5234,-122.6762,9.33,81,66,2.24,US,1681354640
144,tokur,53.1333,132.9,-4.4,69,100,4.03,RU,1681355172
145,sitka,57.0531,-135.33,4.94,75,100,6.17,US,1681354582
146,sao miguel do guama,-1.6267,-47.4833,23.32,97,97,1.14,BR,1681355173
147,hovd,48.0056,91.6419,-2.55,47,15,1.66,MN,1681354970
148,port hardy,50.6996,-127.4199,7.1,65,75,4.63,CA,1681355174
149,morant bay,17.8815,-76.4093,27.79,84,29,2.51,JM,1681354908
150,chipinge,-20.1883,32.6236,12.73,95,0,0.83,ZW,1681355174
151,faanui,-16.4833,-151.75,27.9,73,15,5.46,PF,1681355175
152,kishanpur,25.65,81.0167,33.61,16,4,2.03,IN,1681355175
153,grenaa,56.4158,10.8783,7.12,95,100,11.56,DK,1681355176
154,mount isa,-20.7333,139.5,31.87,25,94,4.63,AU,1681355176
155,bure,10.7,37.0667,18.47,44,99,1.06,ET,1681355177
156,maceio,-9.6658,-35.7353,23.69,94,40,1.03,BR,1681354820
157,hasaki,35.7333,140.8333,22.38,31,0,2.27,JP,1681354667
158,ussuriysk,43.7986,131.9508,11.9,17,72,2.68,RU,1681355178
159,kavieng,-2.5744,150.7967,28.43,69,99,2.87,PG,1681355178
160,jumla,29.2747,82.1838,16.71,27,24,0.84,NP,1681354424
161,cherskiy,68.75,161.3,-15.73,80,100,1.44,RU,1681355178
162,alofi,-19.0595,-169.9187,27.94,74,40,5.14,NU,1681355179
163,souillac,-20.5167,57.5167,25.51,86,6,1.72,MU,1681354603
164,hofn,64.2539,-15.2082,3.8,68,97,5.63,IS,1681355079
165,soubre,5.7856,-6.6083,23.43,93,6,1.2,CI,1681355180
166,bastrop,32.7562,-91.8724,17.68,85,0,0.0,US,1681355180
167,norman wells,65.282,-126.8329,-1.98,59,75,7.2,CA,1681354907
168,nemuro,43.3236,145.575,4.41,73,67,8.39,JP,1681354902
169,kodiak,57.79,-152.4072,5.73,45,0,5.66,US,1681355079
170,tanout,14.9709,8.8879,22.02,13,19,5.16,NE,1681354627
171,barabai,-2.5833,115.3833,30.52,68,51,1.49,ID,1681355182
172,palmer,42.1584,-72.3287,18.23,64,20,0.0,US,1681355182
173,yantal,56.8471,105.2542,-2.64,60,45,3.93,RU,1681355182
174,denizli,37.8402,29.0698,7.31,88,39,0.26,TR,1681355182
175,geraldton,-28.7667,114.6,24.23,57,75,4.63,AU,1681354616
176,thompson,55.7435,-97.8558,-0.91,86,100,3.09,CA,1681355004
177,sinazongwe,-17.2614,27.4618,21.87,79,80,2.04,ZM,1681355184
178,aklavik,68.2191,-135.0107,-17.0,81,100,2.76,CA,1681355184
179,ponta do sol,32.6667,-17.1,18.35,78,11,3.46,PT,1681355049
180,port blair,11.6667,92.75,30.75,58,8,0.61,IN,1681355185
181,vanimo,-2.6741,141.3028,28.15,76,83,2.52,PG,1681354890
182,victoria,22.2855,114.1577,26.35,80,97,6.71,HK,1681354987
183,itarema,-2.9248,-39.9167,24.43,84,48,3.11,BR,1681355026
184,jinchang,38.4953,102.1739,7.78,57,100,2.25,CN,1681355186
185,oranzherei,45.8476,47.5663,12.23,71,100,1.57,RU,1681355186
186,buraydah,26.326,43.975,15.25,28,98,3.18,SA,1681355119
187,nizwa,22.9333,57.5333,24.97,51,1,0.67,OM,1681355187
188,mosalsk,54.4881,34.9817,6.99,65,100,3.36,RU,1681355187
189,freeport,40.6576,-73.5832,24.53,49,0,3.13,US,1681354666
190,airai,-8.9266,125.4092,22.29,74,34,0.83,TL,1681355188
191,green valley,31.8543,-110.9937,26.6,17,76,7.48,US,1681355188
192,birao,10.2849,22.7882,28.34,29,26,4.41,CF,1681355189
193,marawi,7.9986,124.2928,29.38,47,0,0.72,PH,1681355190
194,charters towers,-20.1,146.2667,33.77,24,35,1.78,AU,1681354662
195,korla,41.7597,86.1469,14.17,22,56,1.5,CN,1681355190
196,guanica,17.9716,-66.908,26.1,80,59,2.54,PR,1681355191
197,ilheus,-14.7889,-39.0494,24.9,100,75,1.54,BR,1681355191
198,genhe,50.7833,121.5167,1.73,48,100,3.59,CN,1681355191
199,sept-iles,50.2001,-66.3821,7.29,61,20,3.09,CA,1681355148
200,corinto,37.9407,22.9573,10.5,61,0,1.95,GR,1681354947
201,nioki,-2.7167,17.6833,21.04,98,99,0.47,CD,1681355192
202,sala consilina,40.3912,15.5989,6.88,74,6,1.83,IT,1681355193
203,sorong,-0.8833,131.25,29.28,74,95,4.33,ID,1681355085
204,samarai,-10.6167,150.6667,28.66,75,86,3.72,PG,1681354609
205,bengkulu,-3.8004,102.2655,28.46,66,47,1.57,ID,1681355193
206,constitucion,-35.3333,-72.4167,11.89,93,78,2.02,CL,1681355194
207,bethel,41.3712,-73.414,20.18,51,0,1.54,US,1681355194
208,iqaluit,63.7506,-68.5145,-12.15,84,75,3.09,CA,1681354977
209,caala,-12.8525,15.5606,15.4,87,100,1.18,AO,1681355195
210,juneau,58.3019,-134.4197,4.01,94,100,10.29,US,1681354505
211,faya,18.3851,42.4509,15.06,65,16,2.7,SA,1681354578
212,liaocheng,36.4439,115.9647,22.1,45,100,5.16,CN,1681355196
213,sao filipe,14.8961,-24.4956,22.42,75,64,1.66,CV,1681355196
214,deputatskiy,69.3,139.9,-13.41,77,7,1.62,RU,1681354452
215,kawalu,-7.3817,108.2082,27.32,75,100,1.02,ID,1681355197
216,namibe,-15.1961,12.1522,22.38,70,90,3.42,AO,1681355197
217,onega,63.9061,38.1404,-8.94,72,0,3.13,RU,1681355198
218,quatre cocos,-20.2078,57.7625,23.94,85,14,2.13,MU,1681355198
219,parbatipur,25.6649,88.9247,30.58,23,0,4.25,BD,1681355198
220,rutland,43.6167,-73.0162,12.36,66,0,4.63,US,1681355199
221,ereymentau,51.6199,73.1033,6.73,49,0,4.1,KZ,1681355199
222,touros,-5.1989,-35.4608,24.65,91,73,4.84,BR,1681355200
223,provideniya,64.3833,-173.3,-11.94,52,0,1.79,RU,1681355096
224,tucuman,-26.8241,-65.2226,19.0,100,100,4.12,AR,1681355201
225,fengcheng,40.4536,124.0717,15.63,44,89,4.74,CN,1681355201
226,klaksvik,62.2266,-6.589,5.51,85,98,8.11,FO,1681355202
227,soyo,-6.1349,12.3689,24.84,84,100,2.21,AO,1681355202
228,hay river,60.8156,-115.7999,-4.01,68,40,5.14,CA,1681354646
229,lagoa,39.05,-27.9833,15.21,89,80,5.37,PT,1681355202
230,sabang,5.8933,95.3214,28.3,73,89,3.13,ID,1681354614
231,tarko-sale,64.9225,77.785,-21.44,93,23,6.3,RU,1681354677
232,torbay,47.6666,-52.7314,1.27,95,100,1.03,CA,1681355001
233,mumford,5.2618,-0.759,26.99,84,81,3.63,GH,1681355204
234,kampong thum,12.7111,104.8887,35.51,41,100,4.86,KH,1681355204
235,beni suef,29.0731,31.0979,13.36,60,0,2.21,EG,1681355204
236,katsuura,35.1333,140.3,15.83,46,57,4.16,JP,1681354680
237,pisco,-13.7,-76.2167,23.03,83,0,7.2,PE,1681355205
238,didsbury,53.417,-2.2315,7.58,87,100,9.26,GB,1681355205
239,ayan,56.45,138.1667,-2.77,70,62,9.48,RU,1681354671
240,isangel,-19.55,169.2667,29.81,67,56,2.56,VU,1681355206
241,flin flon,54.7682,-101.865,0.25,95,99,1.94,CA,1681355121
242,tamiahua,21.2667,-97.45,21.47,75,6,2.87,MX,1681355065
243,westport,41.1415,-73.3579,22.19,50,0,1.34,US,1681354938
244,ardon,43.17,44.29,12.55,83,100,3.15,RU,1681355207
245,ohara,35.25,140.3833,15.6,44,32,3.25,JP,1681355207
246,shelburne,44.0787,-80.2041,17.94,53,0,8.75,CA,1681355207
247,tarauaca,-8.1614,-70.7656,24.7,88,100,0.83,BR,1681355208
248,harper,4.375,-7.7169,26.56,84,4,2.88,LR,1681355208
249,cabo san lucas,22.8909,-109.9124,25.61,52,0,5.14,MX,1681355208
250,nikel,69.4128,30.222,-6.9,89,14,3.29,RU,1681355208
251,svetlogorsk,52.6333,29.7333,8.35,87,100,3.97,BY,1681355209
252,nouakchott,18.0858,-15.9785,20.96,77,7,3.85,MR,1681355209
253,san patricio,28.017,-97.5169,20.91,75,10,3.21,US,1681355179
254,saldanha,-33.0117,17.9442,14.03,79,98,1.61,ZA,1681355059
255,prince albert,53.2001,-105.7677,2.96,75,17,3.29,CA,1681355210
256,srednekolymsk,67.45,153.6833,-10.75,74,64,1.6,RU,1681355210
257,mutoko,-17.397,32.2268,16.16,89,100,0.6,ZW,1681355037
258,coahuayana,18.7333,-103.6833,21.54,78,50,1.12,MX,1681355211
259,monte mor,-22.9467,-47.3158,21.64,78,75,3.6,BR,1681355211
260,klyuchi,52.2667,79.1667,7.32,44,88,6.69,RU,1681355211
261,chuy,-33.6971,-53.4616,14.26,87,99,6.23,UY,1681354913
262,chokurdakh,70.6333,147.9167,-14.16,90,18,2.37,RU,1681355091
263,laguna,38.421,-121.4238,17.99,44,0,3.6,US,1681354639
264,mizdah,31.4451,12.9801,15.1,18,1,1.73,LY,1681355213
265,safford,32.834,-109.7076,26.51,15,0,7.2,US,1681355213
266,khatanga,71.9667,102.5,-17.65,72,0,8.86,RU,1681355101
267,shahr-e babak,30.1165,55.1186,14.9,43,100,5.07,IR,1681355214
268,shiogama,38.3167,141.0333,18.99,28,0,7.71,JP,1681355214
269,ostrovnoy,68.0531,39.5131,-10.66,93,100,3.27,RU,1681355087
270,flinders,-34.5833,150.8552,21.21,73,93,2.68,AU,1681355215
271,correntina,-13.3433,-44.6367,21.53,80,92,1.2,BR,1681355215
272,lerwick,60.1545,-1.1494,7.0,86,24,7.17,GB,1681355216
273,longyearbyen,78.2186,15.6401,-0.09,80,75,3.6,SJ,1681355216
274,wasilla,61.5814,-149.4394,4.88,81,100,2.57,US,1681355068
275,bustamante,26.5333,-100.5,21.17,55,5,2.23,MX,1681355216
276,pascagoula,30.3658,-88.5561,16.4,97,100,7.52,US,1681355014
277,zhuji,29.7188,120.2423,24.07,35,86,2.52,CN,1681355217
278,northam,51.0333,-4.2167,8.12,79,42,8.06,GB,1681354973
279,vao,-22.6667,167.4833,25.39,74,100,2.09,NC,1681355218
280,lubango,-14.9172,13.4925,15.19,78,94,1.44,AO,1681355218
281,rio brilhante,-21.8019,-54.5464,21.15,94,6,1.12,BR,1681355218
282,basco,20.4487,121.9702,25.86,85,94,9.05,PH,1681355030
283,gweta,-20.1833,25.2333,18.98,50,2,4.1,BW,1681355219
284,narsaq,60.9167,-46.05,0.12,78,100,2.44,GL,1681355219
285,mazara del vallo,37.6641,12.588,14.6,69,13,4.79,IT,1681355219
286,saint-felicien,48.6501,-72.4491,1.96,85,32,0.67,CA,1681355220
287,guerrero negro,27.9769,-114.0611,14.53,81,100,7.26,MX,1681355220
288,inhambane,-23.865,35.3833,21.11,73,0,2.33,MZ,1681354682
289,bendigo,-36.7667,144.2833,22.7,51,0,1.34,AU,1681354975
290,alyangula,-13.8483,136.4192,30.77,62,85,2.41,AU,1681355010
291,octeville,49.6261,-1.6435,8.27,76,75,7.72,FR,1681355221
292,soldato-aleksandrovskoye,44.2653,43.7561,11.84,73,100,7.91,RU,1681355221
293,haines junction,60.7522,-137.5108,0.97,51,100,2.06,CA,1681355116
294,mungwi,-10.1732,31.3694,16.47,99,99,1.22,ZM,1681355222
295,englehart,47.8169,-79.8664,7.03,97,25,1.38,CA,1681355222
296,sao miguel do araguaia,-13.275,-50.1628,23.75,88,94,1.32,BR,1681355199
297,lorengau,-2.0226,147.2712,28.42,79,98,4.99,PG,1681354643
298,senneterre,48.3835,-77.2328,3.6,96,96,2.37,CA,1681355224
299,wajima,37.4,136.9,13.0,54,0,8.57,JP,1681355224
300,taksimo,56.3444,114.8794,0.51,58,91,1.2,RU,1681354997
301,erzin,36.9559,36.2,10.22,87,94,1.48,TR,1681355225
302,marsh harbour,26.5412,-77.0636,23.41,83,100,10.89,BS,1681355146
303,broome,42.2506,-75.833,17.25,61,0,2.64,US,1681355226
304,nakonde,-9.3421,32.745,14.54,98,97,1.67,ZM,1681355226
305,mehamn,71.0357,27.8492,-2.05,81,13,5.07,NO,1681354679
306,pangnirtung,66.1451,-65.7125,-14.27,82,47,3.1,CA,1681355227
307,kochi,9.9399,76.2602,28.34,77,16,1.36,IN,1681355227
308,harlingen,26.1906,-97.6961,20.59,94,0,2.57,US,1681355228
309,codrington,-38.2667,141.9667,20.71,60,33,3.33,AU,1681355108
310,tadine,-21.55,167.8833,27.41,73,25,1.36,NC,1681355228
311,huarmey,-10.0681,-78.1522,24.83,81,100,3.18,PE,1681354969
312,pershotravneve,51.3929,28.8684,7.42,96,100,2.5,UA,1681355229
313,wiarton,44.7407,-81.1332,14.66,79,0,6.5,CA,1681355229
314,lewistown,40.5992,-77.5714,20.41,42,0,3.6,US,1681355230
315,carnarvon,-24.8667,113.6333,23.61,66,5,9.01,AU,1681355230
316,giyani,-23.3025,30.7187,16.8,77,0,1.62,ZA,1681355230
317,boyuibe,-20.4167,-63.2833,21.27,90,96,1.13,BO,1681355231
318,dali,25.7,100.1833,21.12,24,0,3.03,CN,1681355231
319,moroni,-11.7022,43.2551,26.35,79,96,0.31,KM,1681355211
320,lac du bonnet,50.2536,-96.0612,3.97,91,100,2.98,CA,1681355232
321,saint-joseph,-21.3667,55.6167,24.21,81,22,0.96,RE,1681355232
322,turhal,40.3875,36.0811,7.62,87,100,0.59,TR,1681355233
323,orlik,52.5178,99.825,-8.85,54,5,1.98,RU,1681355233
324,tutoia,-2.7619,-42.2744,25.88,82,95,3.1,BR,1681355234
325,kununurra,-15.7667,128.7333,30.99,70,75,2.57,AU,1681354660
326,hokitika,-42.7167,170.9667,15.56,85,100,2.22,NZ,1681355235
327,mbandaka,0.0487,18.2603,21.9,90,83,1.31,CD,1681355235
328,nishihara,26.1842,127.7558,24.82,65,75,8.75,JP,1681355141
329,pierre,44.3683,-100.351,9.51,57,0,4.63,US,1681355236
330,kropotkin,45.4375,40.5756,9.31,95,100,6.83,RU,1681355039
331,acapulco,16.8634,-99.8901,26.67,62,43,2.01,MX,1681354634
332,la ronge,55.1001,-105.2842,-0.03,99,79,1.88,CA,1681355237
333,ornskoldsvik,63.2909,18.7153,3.53,75,100,3.6,SE,1681355237
334,rawson,-43.3002,-65.1023,7.2,53,1,3.93,AR,1681355183
335,mecca,21.4267,39.8261,21.7,30,36,3.08,SA,1681355238
336,anadyr,64.75,177.4833,-18.72,71,0,3.0,RU,1681355033
337,yumen,40.2833,97.2,10.83,21,100,4.87,CN,1681355238
338,lagos,6.5833,3.75,28.18,90,83,1.62,NG,1681354601
339,yichun,47.7,128.9,7.04,32,67,5.23,CN,1681355239
340,apatity,67.5641,33.4031,-10.84,96,43,1.49,RU,1681355239
341,shimoda,34.6667,138.95,17.84,66,68,4.44,JP,1681355240
342,tilichiki,60.4667,166.1,-12.59,71,52,2.95,RU,1681355241
343,dutlwe,-23.9833,23.9,17.13,54,0,4.43,BW,1681355241
344,teknaf,20.8624,92.3058,30.79,46,0,2.3,BD,1681355241
345,lata,40.1629,-8.3327,12.67,75,98,0.98,PT,1681355242
346,neiafu,-18.65,-173.9833,30.38,70,40,5.66,TO,1681355242
347,riverton,40.5219,-111.9391,21.27,29,0,11.83,US,1681355242
348,sola,-13.8833,167.55,28.46,74,62,3.65,VU,1681355243
349,namatanai,-3.6667,152.4333,27.99,75,98,5.53,PG,1681355099
350,honiara,-9.4333,159.95,29.54,71,53,1.3,SB,1681355243
351,norden,53.6,7.2,5.53,96,57,0.45,DE,1681355243
352,mahibadhoo,3.7833,72.9667,29.03,71,66,4.52,MV,1681355244
353,yeppoon,-23.1333,150.7333,33.88,31,0,4.88,AU,1681355244
354,sarandi,-23.4436,-51.8739,19.17,81,1,1.74,BR,1681355244
355,manta,-0.95,-80.7333,25.88,94,20,1.03,EC,1681355245
356,oranjemund,-28.55,16.4333,12.41,90,26,2.12,NA,1681355245
357,nichinan,31.6,131.3667,20.21,46,64,3.22,JP,1681355245
358,pacific grove,36.6177,-121.9166,11.17,77,75,8.05,US,1681355245
359,bilibino,68.0546,166.4372,-14.95,78,66,1.01,RU,1681355246
360,verkhnyaya inta,65.9811,60.3094,-24.05,98,99,0.72,RU,1681355246
361,olafsvik,64.8945,-23.7142,2.57,74,98,3.31,IS,1681355247
362,grindavik,63.8424,-22.4338,1.26,86,0,4.63,IS,1681354654
363,pangody,65.85,74.4859,-21.67,97,89,5.8,RU,1681355248
364,fukue,32.6881,128.8419,16.98,46,83,2.11,JP,1681355248
365,kharian,32.8149,73.8636,27.91,24,4,1.02,PK,1681355248
366,oda,35.1833,132.5,16.51,41,1,3.07,JP,1681355249
367,manacapuru,-3.2997,-60.6206,24.51,92,100,1.57,BR,1681355250
368,punto fijo,11.6956,-70.1996,25.07,80,90,11.09,VE,1681355250
369,husavik,66.0449,-17.3389,-0.83,86,26,3.65,IS,1681355251
370,victor harbor,-35.5667,138.6167,18.16,64,86,3.75,AU,1681355251
371,emba,48.8264,58.1442,14.59,31,100,8.55,KZ,1681355251
372,irbil,36.1926,44.0106,10.9,82,20,4.12,IQ,1681355252
373,adrar,20.5022,-10.0711,23.61,41,76,2.18,MR,1681354977
374,zhuhai,22.2769,113.5678,26.59,83,40,6.69,CN,1681355252
375,kibala,9.1104,18.3463,28.39,37,99,1.55,TD,1681355253
376,klerksdorp,-26.8521,26.6667,11.83,67,8,3.68,ZA,1681355201
377,ipameri,-17.7219,-48.1597,19.67,91,20,0.96,BR,1681355254
378,usogorsk,63.4106,48.6872,-15.4,75,0,4.12,RU,1681355254
379,leningradskiy,69.3833,178.4167,-16.34,89,90,2.62,RU,1681354992
380,quelimane,-17.8786,36.8883,21.0,95,90,1.86,MZ,1681355255
381,huanren,41.2647,125.3667,15.15,39,95,4.83,CN,1681355123
382,two hills,53.7169,-111.7518,0.14,85,60,1.04,CA,1681355255
383,prabumulih,-3.45,104.25,29.56,68,100,0.84,ID,1681355256
384,chililabombwe,-12.3648,27.8229,16.72,98,100,1.86,ZM,1681355256
385,kirakira,-10.4544,161.9205,28.2,79,38,1.63,SB,1681354971
386,tura,25.5198,90.2201,31.75,21,0,1.87,IN,1681354418
387,kuruman,-27.4524,23.4325,13.16,31,5,2.78,ZA,1681355257
388,antipovka,49.8299,45.3122,12.78,59,100,9.17,RU,1681355257
389,batsfjord,70.6345,29.7185,-3.04,68,13,5.66,NO,1681355258
390,shache,38.4167,77.2406,17.31,17,87,2.9,CN,1681355258
391,pudem,58.3044,52.1675,3.13,92,79,3.47,RU,1681355259
392,coihaique,-45.5752,-72.0662,-0.03,86,0,1.03,CL,1681355259
393,kurilsk,45.2333,147.8833,3.64,63,51,4.18,RU,1681355260
394,swan river,52.1058,-101.2676,4.0,74,25,1.08,CA,1681355260
395,uruguaiana,-29.7547,-57.0883,21.96,88,100,7.72,BR,1681354983
396,erenhot,43.6475,111.9767,13.52,23,100,2.9,CN,1681355260
397,tottori,35.5,134.2333,17.0,37,3,2.34,JP,1681355261
398,havre-saint-pierre,50.2334,-63.5986,2.92,81,90,3.35,CA,1681355261
399,marghita,47.35,22.3333,3.96,91,37,1.6,RO,1681355261
400,vardo,70.3705,31.1107,-3.01,74,18,4.63,NO,1681355262
401,port lincoln,-34.7333,135.8667,17.59,58,3,3.02,AU,1681355262
402,sibolga,1.7427,98.7792,28.87,70,36,1.07,ID,1681355263
403,trindade,-16.6494,-49.4889,21.86,93,20,0.97,BR,1681355208
404,san felipe,10.3399,-68.7425,21.34,95,100,1.51,VE,1681355263
405,vila franca do campo,37.7167,-25.4333,14.23,89,100,1.49,PT,1681355264
406,bulgan,48.8125,103.5347,-3.16,64,100,5.84,MN,1681355264
407,papetoai,-17.4961,-149.8729,28.77,73,6,6.16,PF,1681355264
408,hobyo,5.3505,48.5268,27.74,76,100,3.28,SO,1681355265
409,beringovskiy,63.05,179.3167,-14.54,83,100,5.12,RU,1681355145
410,sao joao de pirabas,-0.7747,-47.1772,24.39,93,98,1.8,BR,1681355266
411,kosikha,53.3617,84.5822,2.67,56,100,5.97,RU,1681355266
412,amealco,20.1833,-100.15,10.04,54,95,1.37,MX,1681355267
413,saint-louis,16.3333,-15.0,25.41,51,100,5.36,SN,1681355267
414,igrim,63.1906,64.4162,-17.38,76,27,4.4,RU,1681355267
415,roswell,34.0232,-84.3616,17.7,55,0,0.51,US,1681355147
416,abdanan,32.9926,47.4198,13.77,98,100,5.97,IR,1681355238
417,tahoua,14.8888,5.2692,25.51,12,16,5.39,NE,1681355268
418,maniitsoq,65.4167,-52.9,-3.2,74,39,2.21,GL,1681355269
419,port macquarie,-31.4333,152.9167,23.27,63,60,7.16,AU,1681354974
420,farkhor,37.4922,69.4036,19.3,46,36,3.12,TJ,1681355269
421,qinhuangdao,39.9317,119.5883,16.88,54,92,6.07,CN,1681355270
422,bismarck,46.8083,-100.7837,4.91,75,0,4.12,US,1681355102
423,tubuala,9.5167,-79.0333,26.31,86,13,5.56,PA,1681355271
424,marand,38.4329,45.7749,9.4,77,62,4.69,IR,1681355271
425,buala,-8.145,159.5921,26.44,83,97,1.22,SB,1681355271
426,dakar,14.6937,-17.4441,22.49,86,58,5.04,SN,1681355201
427,bemidji,47.4736,-94.8803,9.87,80,0,3.09,US,1681355220
428,kargopol,61.5071,38.9456,-5.33,86,96,3.89,RU,1681355272
429,riyadh,24.6877,46.7219,21.08,65,100,4.87,SA,1681355273
430,rurrenabaque,-14.4413,-67.5278,23.3,98,100,0.47,BO,1681355273
431,opuwo,-18.0607,13.84,21.6,38,79,1.69,NA,1681355193
432,mnogovershinnyy,53.9353,139.9242,-5.04,93,100,7.9,RU,1681355274
433,egvekinot,66.3167,-179.1667,-15.42,75,100,1.58,RU,1681354679
434,rudnogorsk,57.2639,103.7519,-3.12,56,73,4.19,RU,1681355275
435,thaton,16.9206,97.3714,31.2,61,97,2.27,MM,1681355275
436,latacunga,-0.9333,-78.6167,10.03,87,40,1.03,EC,1681354920
437,cape canaveral,28.4058,-80.6048,23.37,80,75,8.23,US,1681355276
438,plyussa,58.4308,29.3654,6.68,77,100,3.38,RU,1681355277
439,linxi,39.7,118.4333,20.8,41,100,4.54,CN,1681355278
440,chifeng,42.2683,118.9636,14.15,14,78,4.99,CN,1681355278
441,mananara,-16.1667,49.7667,22.81,94,66,1.13,MG,1681355279
442,ciranjang,-6.7865,107.2832,29.68,65,99,0.39,ID,1681355279
443,khobi,42.3156,41.8987,10.55,98,100,3.33,GE,1681355279
444,brownsville,25.9018,-97.4975,20.61,86,0,3.09,US,1681355280
445,hami,42.8,93.45,12.71,27,20,6.66,CN,1681355280
446,nizhniy kuranakh,58.8353,125.4869,-1.18,89,100,2.18,RU,1681355281
447,buchanan,5.8808,-10.0467,26.9,86,80,2.84,LR,1681355281
448,laplace,30.0666,-90.4801,18.99,75,100,4.12,US,1681355282
449,kutum,14.2,24.6667,17.91,24,7,3.33,SD,1681355282
450,kupang,-10.1667,123.5833,32.32,70,40,3.09,ID,1681355283
451,ngorongoro,-3.2397,35.4875,10.82,95,99,1.36,TZ,1681355283
452,lavrentiya,65.5833,-171.0,-12.85,76,73,1.73,RU,1681355283
453,chitrakonda,18.1167,82.0833,33.83,30,0,0.7,IN,1681355284
454,verkhnevilyuysk,63.4453,120.3167,-2.02,92,100,2.1,RU,1681355284
455,nome,64.5011,-165.4064,-13.96,51,0,0.0,US,1681355285
456,okakarara,-20.5833,17.4333,20.38,40,57,1.4,NA,1681355285
457,puerto baquerizo moreno,-0.9,-89.6,25.55,89,20,1.54,EC,1681355285
458,kenai,60.5544,-151.2583,4.05,82,0,11.83,US,1681355151
459,valparaiso,-33.0393,-71.6273,13.8,88,75,1.49,CL,1681355223
460,kokkola,63.8385,23.1307,3.35,78,0,4.12,FI,1681355287
461,seoul,37.5683,126.9778,15.66,21,0,3.6,KR,1681355087
462,nanortalik,60.1432,-45.2371,0.34,89,100,2.14,GL,1681355270
463,surt,31.2089,16.5887,17.02,33,0,4.7,LY,1681355139
464,tateyama,34.9833,139.8667,15.24,53,88,4.3,JP,1681355288
465,aripuana,-9.1667,-60.6333,22.08,98,97,0.57,BR,1681355289
466,ulverstone,-41.15,146.1667,21.51,62,8,2.45,AU,1681355290
467,hervey bay,-25.2986,152.8535,30.57,52,0,5.72,AU,1681355109
468,alugan,12.2188,125.4808,28.8,71,100,4.16,PH,1681355291
469,yoichi,43.2039,140.7703,7.61,53,6,9.25,JP,1681355291
470,naze,28.3667,129.4833,23.51,66,0,5.64,JP,1681355085
471,nyurba,63.2842,118.3319,-2.07,77,69,4.17,RU,1681355148
472,saint-georges,12.0564,-61.7485,25.82,78,20,5.14,GD,1681355093
473,hearst,49.6835,-83.6665,5.31,100,98,1.86,CA,1681355293
474,berlevag,70.8578,29.0864,-3.03,63,11,10.8,NO,1681355293
475,vanavara,60.34,102.2797,-3.29,75,74,6.3,RU,1681355120
476,samoded,63.6083,40.5111,-10.15,81,26,3.1,RU,1681355293
477,ahipara,-35.1667,173.1667,20.7,69,84,2.7,NZ,1681355294
478,sakaraha,-22.9,44.5333,18.66,93,30,1.33,MG,1681355294
479,tolaga bay,-38.3667,178.3,18.77,74,23,4.74,NZ,1681355133
480,takoradi,4.8845,-1.7554,26.44,88,58,3.57,GH,1681355295
481,ketchikan,55.3422,-131.6461,3.26,93,75,6.69,US,1681355295
482,bathsheba,13.2167,-59.5167,26.34,73,40,6.17,BB,1681355140
483,atambua,-9.1061,124.8925,27.97,71,35,2.17,ID,1681355086
484,asha,54.9973,57.2722,3.43,85,38,1.34,RU,1681355296
485,allapalli,19.4167,80.0667,35.71,22,5,2.04,IN,1681355297
486,stornoway,58.2093,-6.3865,5.98,75,20,6.17,GB,1681355297
487,porto santo,33.072,-16.3415,17.21,77,20,3.6,PT,1681355297
488,port hedland,-20.3167,118.5667,26.03,94,75,7.72,AU,1681355298
489,enshi,30.3,109.4833,21.59,76,100,0.46,CN,1681355275
490,bestobe,52.4994,73.0975,7.78,47,0,6.35,KZ,1681355299
491,zhigansk,66.7697,123.3711,-9.22,87,100,3.17,RU,1681355299
492,vysokogornyy,50.1167,139.15,-0.27,74,100,2.8,RU,1681355299
493,plettenberg bay,-34.0527,23.3716,14.05,64,92,2.24,ZA,1681355004
494,port-gentil,-0.7193,8.7815,27.07,81,90,1.89,GA,1681355301
495,mareeba,-17.0,145.4333,34.69,50,100,0.72,AU,1681355301
496,bela,25.9333,81.9833,34.23,15,2,2.97,IN,1681355301
497,bilma,18.6853,12.9164,20.42,13,1,4.32,NE,1681355101
498,paita,-5.0892,-81.1144,26.81,79,92,4.74,PE,1681355302
499,jacareacanga,-6.2222,-57.7528,23.26,94,100,0.23,BR,1681355302
500,galle,6.0367,80.217,28.28,72,42,2.3,LK,1681355302
501,meulaboh,4.1363,96.1285,28.15,75,51,0.25,ID,1681355303
502,tautira,-17.7333,-149.15,26.83,73,16,5.27,PF,1681355189
503,plover,44.4564,-89.544,24.06,36,0,5.66,US,1681355304
504,lufilufi,-13.8745,-171.5986,32.88,71,79,1.05,WS,1681355304
505,dzhebariki-khaya,62.2167,135.8,-0.37,98,90,0.31,RU,1681355304
506,pipri,19.8,75.5333,32.57,23,86,6.93,IN,1681355305
507,staraya poltavka,50.4772,46.4814,13.16,58,100,9.98,RU,1681355305
508,santa maria,-29.6842,-53.8069,20.62,78,84,1.26,BR,1681355307
509,lazaro cardenas,17.9583,-102.2,24.82,69,70,1.99,MX,1681355307
510,mwinilunga,-11.7358,24.4293,16.71,99,100,2.16,ZM,1681355307
511,puerto varas,-41.3195,-72.9854,9.3,93,100,0.97,CL,1681355308
512,parabel,58.6978,81.4825,0.33,98,100,2.79,RU,1681355308
513,gafanha da encarnacao,40.6181,-8.733,13.76,88,100,5.69,PT,1681355308
514,bonavista,48.6499,-53.1147,-0.43,98,100,6.08,CA,1681355309
515,alta floresta,-9.8756,-56.0861,22.78,95,97,1.28,BR,1681355309
516,evanston,42.0411,-87.6901,22.84,37,0,5.66,US,1681355208
517,poum,-20.2333,164.0167,26.18,78,8,4.97,NC,1681355310
518,aksu,41.1231,80.2644,14.19,21,26,3.9,CN,1681355147
519,richards bay,-28.783,32.0377,17.66,93,76,2.99,ZA,1681355310
520,luba,3.4568,8.5547,26.67,83,24,1.24,GQ,1681355311
521,youghal,51.95,-7.8506,2.56,96,6,4.0,IE,1681355311
522,la rochelle,46.1667,-1.15,9.04,71,46,4.63,FR,1681355312
523,havoysund,70.9963,24.6622,0.13,75,26,7.15,NO,1681355159
524,yorkton,51.2167,-102.4677,1.36,82,69,2.28,CA,1681355312
525,komsomolskiy,40.4272,71.7189,14.4,77,30,1.03,UZ,1681355313
526,saint anthony,45.0205,-93.218,22.79,65,0,0.45,US,1681355313
527,denia,38.8408,0.1057,16.53,68,61,2.68,ES,1681355313
528,messina,38.1933,15.5497,15.99,62,1,2.57,IT,1681355314
529,sanmenxia,34.7747,111.1814,22.66,52,96,2.72,CN,1681355314
530,coquimbo,-29.9533,-71.3436,14.85,94,0,1.03,CL,1681354997
531,lipari,38.4674,14.954,12.96,68,2,4.97,IT,1681355315
532,sao joao da barra,-21.6403,-41.0511,24.15,86,94,3.87,BR,1681355315
533,cintalapa,16.6951,-93.7272,21.02,84,33,2.39,MX,1681355315
534,areia branca,-4.9561,-37.1369,25.55,81,54,5.76,BR,1681355208
535,cayenne,4.9333,-52.3333,25.02,94,100,2.06,GF,1681355217
536,christchurch,-43.5333,172.6333,16.62,77,100,4.63,NZ,1681355082
537,itambacuri,-18.0311,-41.685,20.19,95,18,1.56,BR,1681355316
538,lure,47.75,6.5,4.65,87,100,5.66,FR,1681355317
539,navahrudak,53.6,25.8333,7.37,94,100,4.68,BY,1681355317
540,vostok,46.4856,135.8833,0.72,81,100,6.41,RU,1681355060
541,aleksandrov gay,50.147,48.5704,12.96,55,100,10.24,RU,1681355318
542,comodoro rivadavia,-45.8667,-67.5,1.92,48,0,0.0,AR,1681355318
543,camana,-16.6228,-72.7111,21.91,85,98,2.48,PE,1681355319
544,nelson bay,-32.7167,152.15,22.03,89,12,4.92,AU,1681355319
545,yaan,7.3833,8.5667,26.44,74,5,3.22,NG,1681355319
546,hualmay,-11.0964,-77.6139,23.96,78,76,4.15,PE,1681355319
547,atar,20.5169,-13.0499,24.83,57,37,1.79,MR,1681355193
548,san luis,-33.295,-66.3356,11.73,72,100,7.61,AR,1681355059
549,moose factory,51.2585,-80.6094,0.38,95,31,1.74,CA,1681355320
550,yulara,-25.2406,130.9889,28.77,36,83,2.73,AU,1681355321
551,la union,-5.4,-80.75,28.0,68,100,4.91,PE,1681355321
552,verkh-usugli,52.7,115.1667,4.81,45,25,1.99,RU,1681355321
